酒店,评论,价格,城市,区域,地址,距离,纬度,经度,评分,评价,环境,卫生,服务,设施,标签
上海今朝民宿,213条点评,337,上海,迪士尼,川沙新镇连民村154号,距市中心直线25公里,31.094225448878706,121.68203938640062,4.7,很好,4.7,4.7,4.8,4.7,KTV 影音房 投影仪 泳池 洗衣房 无烟楼层 管家服务 儿童俱乐部 家庭影院 游戏室
如家睿柏·云酒店(上海友谊西路地铁站店),807条点评,270,上海,吴淞口国际邮轮港,友谊路2970号昊耀商业广场内四楼,距市中心直线17.4公里,31.38228809331887,121.42870755905375,4.5,不错,4.5,4.5,4.6,4.5,洗衣房 多人开黑 电竞电脑 机械键盘 家庭房
上海都会路丽呈酒店,42条点评,395,上海,交大/闵行开发区,颛桥镇都会路3690号,距市中心直线17.1公里,31.08651431528881,121.41020554366449,4.9,超棒,4.9,4.9,4.9,4.9,榻榻米房 免费停车 管家服务 会议厅 自助早餐 新开业 健身室 家庭房
上海森兰洲海路地铁站CitiGO HOUSE欢阁服务公寓,"1,375条点评",335,上海,浦东外高桥,洲海路1088弄2号B幢,距市中心直线14.4公里,31.31492202817954,121.58805965368565,4.7,很好,4.7,4.7,4.7,4.7,免费停车 健身室 商务中心 管家服务 无烟楼层 洗衣房 干衣机 充电桩 厨房 花园景
上海陆家嘴万信R酒店,"5,970条点评",601,上海,浦东金桥,崮山路688号,距市中心直线8.2公里,31.2397610883836,121.55945916165794,4.6,好,4.6,4.6,4.6,4.6,免费停车 洗衣房 家庭房 会议厅 榻榻米房 无烟楼层 健身室 自助早餐 套房 SPA
格盟酒店(上海市崇明长兴岛客运站店),163条点评,196,上海,崇明岛/长兴岛/横沙岛,长兴岛凤凰公路38号1幢 (客运站隔壁),距市中心直线26.4公里,31.3801492991834,121.688299057353,4.5,不错,4.4,4.5,4.6,4.4,自助早餐 花园 会议厅 免费停车 套房 洗衣房 家庭房 无烟楼层 棋牌室 江河景房
客堂涧公寓酒店(上海虹桥机场合川路店),124条点评,273,上海,光大会展中心/漕河泾地区,合川路2850号一层,距市中心直线10.9公里,31.1711464706402,121.3829820361446,4.2,,4.1,4.3,4.3,4.2,洗衣房 管家服务 无烟楼层 干衣机 新开业
上海吉臣维景酒店,"8,038条点评",595,上海,静安寺/南京西路,万航渡路818号,距市中心直线4.2公里,31.227855593399447,121.42964481180896,4.6,好,4.7,4.7,4.7,4.5,免费停车 美食酒店 机器人服务 拍照出片 会议厅 咖啡厅 无烟楼层 健身室 动人夜景 套房
上海光大国际大酒店,"1,427条点评",409,上海,光大会展中心/漕河泾地区,漕宝路66号,距市中心直线8.2公里,31.167602981681217,121.42943455801061,4.5,不错,4.6,4.5,4.5,4.4,泳池 商务中心 健身室 免费停车 咖啡厅 自助早餐 套房 无烟楼层 充电桩
上海嘉定新城瑞贝庭公寓酒店,157条点评,284,上海,嘉定新城,马陆镇合作路859号,距市中心直线24公里,31.337883995444304,121.25461816566977,4.5,不错,4.6,4.5,4.6,4.4,免费停车 新开业 机器人服务 洗衣房 会议厅 健身室 自助早餐 干衣机 咖啡厅 花园
格林豪泰(崇明南门店),125条点评,396,上海,崇明岛/长兴岛/横沙岛,城桥镇三沙洪路153号,距市中心直线45.2公里,31.62924744257324,121.38590680918487,4.4,,4.3,4.4,4.5,4.3,棋牌室 免费停车 无烟楼层 套房 免费儿童早餐 家庭房 茶室
伟樽酒店(上海虹桥火车站国家会展中心店),"1,536条点评",339,上海,虹桥机场/国家会展中心,北翟路3088号,距市中心直线14.6公里,31.22179654166546,121.32046088515617,4.6,好,4.6,4.6,4.7,4.6,免费停车 会议厅 免费送机 免费接送机 自助早餐 家庭房 套房 花园 无烟楼层 拍照出片
锦江之星风尚(上海浦东机场镇店),"4,090条点评",314,上海,浦东机场核心区,川南奉公路971弄1号7幢,距市中心直线26.3公里,31.18250572529233,121.74436430423702,4.4,,4.4,4.5,4.5,4.4,免费停车 穿梭机场班车 无烟楼层 花园景 套房 自助早餐
维也纳国际酒店(上海浦东机场店),"6,064条点评",420,上海,浦东机场核心区,川南奉公路1226号11幢,距市中心直线26.5公里,31.175609544976354,121.74493231248573,4.6,好,4.6,4.7,4.7,4.6,免费停车 穿梭机场班车 机器人服务 家庭房 自助早餐 无烟楼层 商务中心 洗衣房 健身室 套房
齐来轻奢酒店(上海虹桥中心店),"6,409条点评",348,上海,光大会展中心/漕河泾地区,吴中路1169号,距市中心直线10.4公里,31.1762721524864,121.384995193429,4.7,很好,4.7,4.7,4.7,4.7,机器人服务 咖啡厅 智能客控 无烟楼层 健身室 干衣机 洗衣房 儿童餐 拍照出片 会议厅
树下智慧民宿,2条点评,234,上海,顾村公园,新川沙路529弄15号,距市中心直线30.2公里,31.477985526353496,121.34360346306816,4.8,棒,4.8,4.8,4.8,4.8,阳台房 智能客控 新开业 套房 榻榻米房 家庭房
上海陆家嘴丽呈酒店,"3,552条点评",514,上海,陆家嘴,南洋泾路568号,距市中心直线7.9公里,31.232324453348447,121.55658896353765,4.7,很好,4.7,4.7,4.7,4.6,免费停车 洗衣房 充电桩 商务中心 机器人服务 无烟楼层 自助早餐 套房
上海徐家汇八万人体育场趣栗酒店,"1,470条点评",408,上海,徐家汇,龙华西路515号,距市中心直线6.7公里,31.176216906652378,121.4430749086823,4.5,不错,4.5,4.5,4.5,4.4,智能客控 免费停车 健身室 咖啡厅 干衣机 商务中心 洗衣房 管家服务 套房 花园
唯庭酒店(上海徐家汇交大店),"4,467条点评",444,上海,徐家汇,文定路218号,距市中心直线6.4公里,31.18578163350274,121.43195405883898,4.8,棒,4.8,4.8,4.8,4.7,会议厅 智能客控 洗衣房 健身室 机器人服务 干衣机 咖啡厅 自助早餐 家庭房 管家服务
上海协信莎玛长风服务式公寓,"2,272条点评",430,上海,长风公园,大渡河路388弄2号,距市中心直线7.6公里,31.22486157636204,121.39401211607868,4.6,好,4.7,4.7,4.6,4.6,免费停车 动人夜景 健身室 儿童乐园 自助早餐 无烟楼层 家庭房 套房 自营亲子房 厨房
乐谷酒店(上海佘山地铁站店),169条点评,266,上海,佘山/松江大学城,泗泾镇古楼公路1886号4楼,距市中心直线26.9公里,31.1037908026237,121.233105392646,4.3,,4.2,4.2,4.4,4.2,无烟楼层
上海宝安大酒店,"4,020条点评",491,上海,陆家嘴,东方路800号,距市中心直线4.8公里,31.22654411865936,121.52378624852757,4.6,好,4.6,4.6,4.6,4.5,家庭房 会议厅 健身室 行政酒廊 中式餐厅 套房 无烟楼层 自助早餐 咖啡厅 管家服务
艺龙安悦酒店(上海浦东大道歇浦路地铁站店),"2,985条点评",420,上海,浦东金桥,浦东金桥浦东大道2123号,距市中心直线7.6公里,31.24999948224183,121.5503163798899,4.7,很好,4.6,4.7,4.7,4.6,免费停车 干衣机 自营影音房 机器人服务 投影仪 洗衣房 无烟楼层 免费儿童早餐 家庭房 咖啡厅
上海松江m美玥酒店,"2,214条点评",399,上海,佘山/松江大学城,中山街道广富林路358弄三迪曼哈顿二期6号楼,距市中心直线28.5公里,31.057965458221155,121.25200758335009,4.8,棒,4.8,4.8,4.8,4.8,智能客控 会议厅 健身室 机器人服务 免费停车 自助早餐 咖啡厅 干衣机 无烟楼层 洗衣房
上海虹桥宾馆,"4,273条点评",399,上海,虹桥,延安西路2000号,距市中心直线6.7公里,31.204011944890834,121.41020598019871,4.6,好,4.6,4.6,4.5,4.5,室内恒温泳池 免费停车 拍照出片 商务中心 咖啡厅 行政酒廊 酒吧 无烟楼层 健身室 自助早餐
如家酒店(上海奉贤金汇商业广场店),196条点评,238,上海,奉贤开发区,金汇镇金闸公路599号,距市中心直线27公里,30.9894793432767,121.503425261621,4.3,,4.3,4.4,4.4,4.3,无烟楼层 商务中心
上海浦东开元大酒店,"1,064条点评",376,上海,浦东外高桥,自由贸易试验区张杨北路5658号,距市中心直线16公里,31.345591337782775,121.5746381065171,4.6,好,4.6,4.6,4.5,4.5,室内泳池 免费停车 机器人服务 自助早餐 健身室 无烟楼层 家庭房 会议厅 套房
虹舸公寓酒店,859条点评,406,上海,虹桥,天山支路168号A区1-3层,距市中心直线7.6公里,31.215235210886444,121.3962719171095,4.5,不错,4.4,4.5,4.4,4.4,健身室 会议厅 管家服务 无烟楼层 家庭房 自助早餐
上海五角场博邻酒店,907条点评,542,上海,江湾/五角场,殷行路1258号,距市中心直线11.6公里,31.329536476696692,121.51174546588572,4.7,很好,4.7,4.7,4.6,4.6,免费停车 洗衣房 咖啡厅 恒温泳池 会议厅 健身室 无烟楼层 瑜伽课程 套房 干衣机
上海携程美居酒店,"3,185条点评",587,上海,虹桥,福泉路99号,距市中心直线11.1公里,31.22003763525599,121.35782273558736,4.8,棒,4.8,4.9,4.8,4.8,机器人服务 健身室 亲子主题房 无烟楼层 自助早餐 会议厅
汉庭酒店(上海嘉定新城白银路地铁站店),660条点评,297,上海,嘉定新城,崇信路1501号,距市中心直线25.6公里,31.344758361587317,121.24056273232323,4.7,很好,4.7,4.8,4.8,4.7,洗衣房 咖啡厅 免费停车 无烟楼层 干衣机 自助早餐
桔子酒店(上海虹桥机场曹安公路店),"1,854条点评",365,上海,长风公园,曹安公路1980号,距市中心直线11.5公里,31.25644623025807,121.35661230935493,4.8,棒,4.7,4.8,4.8,4.7,穿梭机场班车 免费停车 充电桩 洗衣房 免费送站 机器人服务 自助早餐 咖啡厅 管家服务 智能客控
上海瑞廷西郊S酒店,"3,716条点评",382,上海,虹桥机场/国家会展中心,徐泾镇双联路88号,距市中心直线19.3公里,31.1931156332493,121.275918353169,4.7,很好,4.7,4.7,4.7,4.7,免费停车 洗衣房 家庭房 机器人服务 干衣机 商务中心 咖啡厅 酒吧 套房 无烟楼层
上海静安寺淮海中路亚朵X酒店,"3,297条点评",694,上海,淮海路/新天地,淮海中路1329号云海大厦1F6-11F,距市中心直线3.1公里,31.2118537317552,121.449558786561,4.6,好,4.6,4.6,4.7,4.6,机器人服务 智能客控 老洋房 干衣机 咖啡厅 拍照出片 自助早餐 无烟楼层 洗衣房 管家服务
唯庭酒店(上海金桥店),"1,615条点评",334,上海,浦东金桥,金桥路1388号,距市中心直线11.1公里,31.252679912364304,121.58744207326251,4.5,不错,4.5,4.5,4.5,4.5,免费停车 自助早餐 SPA 花园 蓝牙音箱 智能客控 无烟楼层 家庭影院
上海思韦特公寓(新金桥路店),200条点评,271,上海,浦东金桥,新金桥路1388号,距市中心直线13.5公里,31.253930540084895,121.61325163790981,4.2,,4.2,4.2,4.3,4.2,洗衣房 套房
景莱酒店·轻奢(上海北外滩大悦城店),"3,735条点评",643,上海,北外滩,曲阜路9弄66号,距市中心直线1.4公里,31.24256281446274,121.47487675696951,4.3,,4.3,4.4,4.4,4.3,机器人服务 洗衣房 拍照出片 干衣机 动人夜景 智能客控 无烟楼层 自助早餐 咖啡厅 会议厅
上海礼和酒店(徐家汇地铁站店),"1,766条点评",462,上海,徐家汇,南丹东路208号,距市中心直线5.6公里,31.189225950223406,121.439759680416,4.6,好,4.6,4.6,4.6,4.5,无烟楼层 洗衣房 干衣机 家庭房
上海浦东国际机场东站华美达酒店,"1,175条点评",435,上海,浦东机场核心区,施新路958号,距市中心直线28.7公里,31.1479890297129,121.759198787555,4.4,,4.3,4.5,4.5,4.3,免费停车 免费送机 儿童乐园 自助早餐 家庭房 亲子主题房 免费接送机 无烟楼层
一只柠萌酒店(上海淮海路店),116条点评,240,上海,淮海路/新天地,淮海中路1329号云海大厦18楼,距市中心直线3.1公里,31.21178632956219,121.44962269186188,4.7,很好,4.7,4.8,4.8,4.6,新开业 酒吧 洗衣房 干衣机
和寓(莘庄工业区店),105条点评,226,上海,莘庄,申旺路789号4栋6楼,距市中心直线19.1公里,31.081444621041708,121.37474703213046,4.3,,4.3,4.4,4.1,4.3,新开业 免费停车 管家服务 厨房 套房
上海南郊宾馆,"2,193条点评",463,上海,奉贤开发区,南桥新城展园路398号,距市中心直线34公里,30.925193588545426,121.48362378309695,4.6,好,4.6,4.6,4.5,4.5,水上乐园 室内泳池 亲子酒店 中式餐厅 挖沙 自助早餐 套房 无烟楼层 会议厅 棋牌室
上海双阳精品酒店(黄兴路地铁站店),163条点评,210,上海,江湾/五角场,双阳路421号,距市中心直线8公里,31.281944510325136,121.53183688210618,4.3,,4.3,4.4,4.3,4.2,管家服务 无烟楼层 套房
维也纳国际酒店(上海虹桥国展中心漕宝路店),"1,173条点评",328,上海,光大会展中心/漕河泾地区,虹莘路2968弄37号,距市中心直线12.2公里,31.15663015733,121.37872028873,4.5,不错,4.5,4.5,4.6,4.5,免费停车 会议厅 洗衣房 无烟楼层 干衣机 自助早餐 家庭房
上海徐汇同文君亭酒店,"1,647条点评",451,上海,光大会展中心/漕河泾地区,桂林路17号,距市中心直线9.7公里,31.1544963626033,121.42286050803,4.7,很好,4.7,4.7,4.7,4.6,免费停车 影音房 洗衣房 花园 咖啡厅 健身室 投影仪 自助早餐 家庭房 会议厅
如家酒店(上海新国际博览中心高科西路罗山路店),270条点评,321,上海,新国际博览中心,高科西路4057号,距市中心直线10.5公里,31.192584515715332,121.5747453887875,4.2,,4.2,4.3,4.2,4.2,免费停车 套房 无烟楼层
荷花酒店(淀山湖大道地铁站万达茂店),899条点评,369,上海,青浦朱家角/东方绿舟,青泰路656号,距市中心直线39公里,31.13694966259741,121.07899454145344,4.8,棒,4.8,4.9,4.9,4.8,室内恒温泳池 免费停车 机器人服务 家庭房 茶室 无烟楼层 瑜伽课程 干衣机 棋牌室 咖啡厅
桔子酒店上海国际旅游度假区申江南路店,"1,285条点评",444,上海,南汇/野生动物园,新场镇申江南路4888号,距市中心直线23.9公里,31.074054499234986,121.64576658783294,4.7,很好,4.7,4.7,4.7,4.7,免费停车 洗衣房 机器人服务 智能客控 儿童乐园 免费送机 自助早餐 无烟楼层 健身室 管家服务
嘉虹酒店(上海虹桥机场店),"1,668条点评",406,上海,虹桥机场/国家会展中心,沪青平公路38号,距市中心直线12.3公里,31.183962335123546,121.3566430057958,4.6,好,4.5,4.6,4.6,4.5,免费停车 会议厅 免费送机 免费接送机 洗衣房 自助早餐 干衣机 健身室 亲子主题房 无烟楼层
上海唐镇智选假日酒店,"1,015条点评",486,上海,迪士尼,高科东路515弄30号恒生万鹂广场4号楼,距市中心直线17.2公里,31.2125567102641,121.653277077431,4.7,很好,4.7,4.7,4.6,4.6,低碳酒店 免费停车 咖啡厅 机器人服务 无烟楼层 儿童餐 棋牌室 室内无边泳池 套房 干衣机 管家服务
一亨酒店(上海虹桥北新泾地铁站店),418条点评,341,上海,虹桥,泉口路117号靠近北渔路地铁2号线北新泾站,距市中心直线10公里,31.212145869705324,121.37124505956604,4.3,,4.3,4.3,4.4,4.2,免费停车 洗衣房 家庭房
上海虹桥万象城CitiGO欢阁酒店,"2,009条点评",386,上海,虹桥,金汇路465号,距市中心直线11.1公里,31.178323186219494,121.37456131492691,4.8,棒,4.8,4.8,4.8,4.7,健身室 洗衣房 自助早餐 咖啡厅 干衣机 无烟楼层 会议厅 智能客控
上海大宁市北高新园区亚朵酒店,"1,535条点评",503,上海,大宁国际,广延路1286号,距市中心直线7.1公里,31.29231465078589,121.45511148370136,4.7,很好,4.7,4.8,4.7,4.7,免费停车 机器人服务 洗衣房 自助早餐 商务中心 干衣机 健身室 家庭房 无烟楼层 套房
上海浦东国际机场迪航酒店,"5,482条点评",378,上海,浦东机场核心区,晨阳西路653号,距市中心直线26.5公里,31.175234582514673,121.74450789829258,4.6,好,4.6,4.6,4.7,4.6,免费接机 洗衣房 家庭房 无烟楼层 免费接送机 干衣机 会议厅 自助早餐
上海徐家汇CitiGO欢阁酒店,"2,253条点评",548,上海,徐家汇,肇嘉浜路1029弄88号,距市中心直线5公里,31.19472585480885,121.44251576499454,4.7,很好,4.7,4.7,4.7,4.6,干衣机 咖啡厅 健身室 自助早餐 洗衣房 无烟楼层 智能客控 拍照出片 免费停车 茶室
上海禾安牛民宿,,839,上海,淮海路/新天地,长乐路169弄4号一楼101室,距市中心直线1.5公里,31.220975290935673,121.46218902134662,,,,,,,新开业
景莱酒店•臻选(上海长寿路地铁站店),"2,400条点评",510,上海,长寿路,安远路395号,距市中心直线3.2公里,31.2390552673943,121.44206914812,4.6,好,4.7,4.6,4.7,4.6,洗衣房 机器人服务 干衣机 烧烤 家庭房 无烟楼层 智能客控 花园 拍照出片 会议厅
全季酒店(上海虹桥古北壹号店),781条点评,485,上海,虹桥,翠钰路8号,距市中心直线8.5公里,31.1902778355113,121.397935557147,4.6,好,4.6,4.7,4.6,4.6,洗衣房 健身室 咖啡厅 免费停车 商务中心 无烟楼层 自助早餐
上海五角场逸扉酒店,"3,327条点评",437,上海,江湾/五角场,国定东路255号,距市中心直线8.8公里,31.298580562270306,121.52052319556402,4.9,超棒,4.9,4.9,4.9,4.8,干衣机 免费停车 智能客控 儿童餐 无烟楼层 自助早餐 咖啡厅 健身室 下午茶 管家服务
上海虹桥漕河泾美居酒店,"1,767条点评",423,上海,光大会展中心/漕河泾地区,虹莘路3069号,距市中心直线12.4公里,31.156150515287674,121.37699287985507,4.8,棒,4.7,4.8,4.8,4.7,免费停车 免费送机 免费送站 机器人服务 洗衣房 干衣机 咖啡厅 健身室 套房 无烟楼层
上海雅居乐万豪侯爵酒店,"4,759条点评",1282,上海,人民广场,西藏中路555号,距市中心直线700米,31.236681468408968,121.47352855046793,4.7,很好,4.7,4.7,4.7,4.7,动人夜景 行政酒廊 健身室 室内泳池 酒吧 拍照出片 自助早餐 中式餐厅 咖啡厅 家庭房
上海虹桥临空智选假日酒店,212条点评,404,上海,虹桥,临虹路289号,距市中心直线11.6公里,31.22993755975702,121.35147228540418,4.8,棒,4.7,4.9,4.8,4.8,免费停车 干衣机 健身室 新开业 自助早餐 无烟楼层 洗衣房
上海五角场丽芮酒店,"1,804条点评",591,上海,江湾/五角场,四平路1251号,距市中心直线6.9公里,31.285105501191097,121.5070350306514,4.8,棒,4.8,4.8,4.8,4.8,机器人服务 酒吧 下午茶 家庭房 健身室 咖啡厅 无烟楼层 套房 自助早餐 会议厅
和颐至尚酒店(上海前滩世博园店),"1,746条点评",382,上海,前滩,海阳路681弄5号楼,距市中心直线8.5公里,31.15680030682061,121.49853846234478,4.6,好,4.6,4.6,4.6,4.5,免费停车 机器人服务 洗衣房 无烟楼层 家庭房 套房 干衣机 管家服务 自助早餐 会议厅
上海五角场柏阳君亭酒店,641条点评,419,上海,四川北路,曲阳路779号,距市中心直线6.7公里,31.288432775870643,121.49049265199342,4.7,很好,4.7,4.7,4.8,4.7,机器人服务 洗衣房 免费停车 无烟楼层 干衣机 套房 自助早餐 咖啡厅 健身室 会议厅
上海前滩香格里拉大酒店,"4,261条点评",1332,上海,前滩,海阳西路551号,距市中心直线8.8公里,31.151382707093756,121.48130239870322,4.8,棒,4.8,4.8,4.7,4.8,行政酒廊 瑜伽课程 音乐会 设计师酒店 江河景房 中式餐厅 城市夜景 蓝牙音箱 会议厅 儿童餐
浦天美泊酒店(上海国际旅游度假区店),"3,720条点评",526,上海,南汇/野生动物园,惠南镇沪南公路9900号5层-10层,距市中心直线33公里,31.0395715902545,121.738660450075,4.6,好,4.6,4.6,4.7,4.6,免费接送机 儿童乐园 亲子主题房 管家服务 动物角 乒乓球室 桌球室 棋牌室 免费停车 自助早餐
上海徐家汇漕河泾CitiGO欢阁公寓酒店,991条点评,470,上海,光大会展中心/漕河泾地区,钦州路777号,距市中心直线7.3公里,31.1778896947642,121.427576785184,4.7,很好,4.7,4.7,4.7,4.7,机器人服务 健身室 干衣机 洗衣房 自助早餐 无烟楼层 智能客控 会议厅
上海金桥中心逸扉酒店,820条点评,521,上海,浦东金桥,金台路222号,距市中心直线11.1公里,31.251591569475167,121.58799163075258,4.7,很好,4.7,4.7,4.7,4.7,免费停车 充电桩 会议厅 洗衣房 健身室 干衣机 自助早餐 无烟楼层 咖啡厅 投影仪
万信酒店(上海陆家嘴世博园店),"3,361条点评",535,上海,新国际博览中心,高科西路551号,距市中心直线5.8公里,31.184955722965327,121.50443134177053,4.5,不错,4.5,4.5,4.5,4.5,免费停车 洗衣房 机器人服务 干衣机 会议厅 自助早餐 无烟楼层 套房 儿童餐 音乐会
上海瑞金洲际酒店,"2,376条点评",1838,上海,淮海路/新天地,瑞金二路118号,距市中心直线2.1公里,31.212978061425993,121.46411620668263,4.7,很好,4.8,4.8,4.7,4.7,花园洋房 拍照出片 免费停车 会议厅 行政酒廊 历史古韵 桑拿 SPA 室内泳池 中式餐厅
上海虹桥国家会展中心同派酒店,"1,076条点评",365,上海,虹桥周边,闵北路115号,距市中心直线18.1公里,31.2156410952686,121.284493483854,4.7,很好,4.7,4.7,4.6,4.7,免费停车 会议厅 咖啡厅 工业风 健身室 机器人服务 洗衣房 酒吧 干衣机 自助早餐
上海虹桥中心爱琴海亚朵S酒店,"2,899条点评",766,上海,虹桥,吴中路与虹井路交叉口吴中路1588号2-C幢,距市中心直线11.6公里,31.174039723122,121.371458545928,4.7,很好,4.8,4.8,4.8,4.7,设计师酒店 动人夜景 会议厅 健身课程 瑜伽课程 机器人服务 健身室 干衣机 自助早餐 管家服务
上海浦东金桥国际商业广场亚朵酒店,"1,977条点评",580,上海,浦东金桥,栖山路1875号,距市中心直线9.9公里,31.26161222167277,121.57163852168621,4.8,棒,4.8,4.8,4.8,4.8,免费停车 会议厅 健身室 自助早餐 无烟楼层 套房 花园 管家服务
维也纳国际酒店(上海交大沪闵路店),599条点评,342,上海,交大/闵行开发区,沪闵路280号,距市中心直线25.3公里,31.007573404362333,121.42168971537862,4.4,,4.4,4.5,4.4,4.4,棋牌室 免费停车 洗衣房 KTV 商务中心 无烟楼层 套房 自助早餐 家庭房 花园景
上海言舍民宿,,540,上海,静安寺/南京西路,康定路1033号同济佳苑写字楼22楼2207室,距市中心直线3.4公里,31.230188922862432,121.43753450286424,,,,,,,洗衣房 套房 厨房
上海馨乐庭陆家嘴公寓酒店,"1,208条点评",628,上海,浦东金桥,崮山路500号 (明悦大厦内),距市中心直线8公里,31.243042326071233,121.55657716652827,4.6,好,4.6,4.7,4.6,4.6,干衣机 健身室 会议厅 机器人服务 无烟楼层 自助早餐 套房 厨房
上海国展中心航中路地铁站美沁酒店,"1,123条点评",361,上海,七宝,航中路139号,距市中心直线13.3公里,31.168233,121.354449,4.7,很好,4.7,4.7,4.7,4.7,商务中心 无烟楼层
上海九思酒店,"1,158条点评",385,上海,顾村公园,山连路377弄8号,距市中心直线14.6公里,31.307412015344806,121.3495919310024,4.8,棒,4.8,4.9,4.8,4.8,免费停车 SPA 机器人服务 拍照出片 会议厅 智能客控 套房 干衣机 洗衣房 自助早餐
宿适夏洛特酒店(上海国际旅游度假区酒店),"3,584条点评",281,上海,迪士尼,周浦镇瓦屑振兴路58号,距市中心直线21.9公里,31.1089708680973,121.654989730449,4.6,好,4.6,4.6,4.7,4.6,儿童乐园 亲子主题房 无烟楼层 拍照出片 管家服务 套房 家庭房 烧烤
上海爱可以农家乐,,270,上海,崇明岛/长兴岛/横沙岛,横沙乡新永村809号,距市中心直线38.4公里,31.33476775717223,121.85821709320248,,,,,,,榻榻米房 新开业
锦江都城酒店(上海五角场店),"1,361条点评",412,上海,江湾/五角场,国霞路345号C座,距市中心直线10公里,31.3157816984524,121.505029994837,4.8,棒,4.8,4.8,4.8,4.8,机器人服务 家庭房 免费停车 干衣机 咖啡厅 洗衣房 健身室 套房 自助早餐 SPA
简爱酒店  (上海西站店),"1,396条点评",374,上海,长风公园,桃浦路306号B座,距市中心直线8.2公里,31.26027204037147,121.39487196671843,4.6,好,4.6,4.6,4.6,4.6,家庭房 无烟楼层 管家服务 咖啡厅 自助早餐 会议厅 充电桩 智能客控 花园
上海新国际博览中心龙阳路亚朵酒店,"1,906条点评",660,上海,新国际博览中心,龙阳路1245号5-8楼,距市中心直线6.7公里,31.19856132690844,121.53317580820122,4.8,棒,4.7,4.8,4.8,4.7,会议厅 机器人服务 洗衣房 自助早餐 免费停车 咖啡厅 健身室 无烟楼层 儿童餐
上海浦东张江园区张江路河畔轻居酒店,895条点评,411,上海,浦东张江,张江路135号,距市中心直线13.4公里,31.210431194774053,121.6126303072404,4.9,超棒,4.9,4.9,4.9,4.8,机器人服务 干衣机 智能客控 健身室 免费停车 花园 自助早餐 亲子主题房 洗衣房 儿童餐
上海大宁福朋喜来登酒店,"2,270条点评",689,上海,大宁国际,共和新路1928号,距市中心直线5.2公里,31.273740064610116,121.45202847608871,4.6,好,4.6,4.6,4.6,4.5,免费停车 亲子主题房 室内泳池 商务中心 健身室 无烟楼层 自助早餐 拍照出片 咖啡厅 酒吧
柏曼酒店(上海虹桥火车站国展中心店),"1,190条点评",474,上海,虹桥机场/国家会展中心,华江路1338号,距市中心直线14公里,31.22757799234385,121.32641829947933,4.5,不错,4.5,4.5,4.6,4.5,低碳酒店 免费停车 洗衣房 健身室 棋牌室 无烟楼层 套房 机器人服务 干衣机 充电桩 家庭房
小河迷仓公寓(上海大宁国际马戏城地铁站店),129条点评,308,上海,大宁国际,北宝兴路624号C栋,距市中心直线5.4公里,31.277994465631572,121.4611071462297,4.7,很好,4.7,4.7,4.7,4.5,健身室 厨房 管家服务 情侣房 无烟楼层 洗衣房 干衣机 充电桩 烧烤 咖啡厅
吉泰连锁酒店(上海本溪路新华医院店),867条点评,316,上海,江湾/五角场,本溪路197号,距市中心直线6.2公里,31.274793388451357,121.51378209352391,4.1,,4.2,4.1,4.2,4.1,洗衣房 无烟楼层 自助早餐 家庭房
上海古美智选假日酒店,63条点评,421,上海,光大会展中心/漕河泾地区,龙茗路1300弄181号,距市中心直线12.8公里,31.142812393030397,121.38633830399796,4.6,好,4.3,4.8,4.6,4.5,新开业 洗衣房 机器人服务 无烟楼层 会议厅 健身室 免费停车 自助早餐 套房 干衣机
上海金桥红枫万豪酒店,655条点评,1050,上海,浦东金桥,新金桥路15号,距市中心直线11.3公里,31.243901161701682,121.59170106869492,4.8,棒,4.9,4.9,4.8,4.8,意大利餐厅 室内泳池 健身室 酒吧 套房 免费停车 自助早餐 厨房 无烟楼层 管家服务
唯庭酒店(上海中山公园地铁站店),"2,189条点评",417,上海,中山公园,中山西路515号,距市中心直线6.1公里,31.2138720354088,121.412345577819,4.6,好,4.6,4.6,4.6,4.6,智能客控 咖啡厅 洗衣房 无烟楼层
上海中环百联铜川路地铁站亚朵X酒店,944条点评,454,上海,长风公园,真北路2051号,距市中心直线8.2公里,31.251912174178766,121.39102142269894,4.7,很好,4.7,4.7,4.7,4.7,免费停车 新开业 洗衣房 机器人服务 健身室 干衣机 自助早餐 无烟楼层 智能客控 咖啡厅
上海闵行工业园亚朵酒店,"1,088条点评",394,上海,交大/闵行开发区,潭竹路58号5幢,距市中心直线20.1公里,31.05374815410116,121.43055069505694,4.8,棒,4.8,4.8,4.8,4.8,花园景 免费停车 干衣机 洗衣房 自助早餐 套房 机器人服务 咖啡厅 无烟楼层 自营亲子房
桔子水晶上海安亭酒店,"1,445条点评",375,上海,嘉定新城,曹安公路5676号,距市中心直线30.7公里,31.288937587680042,121.15790190149252,4.9,超棒,4.9,4.9,4.9,4.9,健身室 机器人服务 免费停车 洗衣房 自助早餐 无烟楼层 干衣机 儿童餐 会议厅
全季酒店(上海隆昌路地铁站店),"2,092条点评",497,上海,北外滩,长阳路2669号,距市中心直线8.6公里,31.276595094296585,121.54622485215583,4.8,棒,4.8,4.8,4.8,4.8,免费停车 机器人服务 新开业 无烟楼层 洗衣房 自助早餐 家庭房
上海三甲港绿地铂骊酒店(浦东机场店),773条点评,346,上海,浦东机场核心区,华夏东路6666弄6号,距市中心直线28.9公里,31.210568760958417,121.77639036597189,4.5,不错,4.5,4.5,4.5,4.5,海景房 免费停车 免费送机 马场 儿童乐园 骑马 亲子酒店 免费接送机 自助早餐 棋牌室
上海浦东张江园区张江路亚朵X酒店,"1,887条点评",489,上海,浦东张江,张江路625号,距市中心直线13.8公里,31.205134494298417,121.61571624346617,4.9,超棒,4.9,4.9,4.9,4.9,健身室 自助早餐 智能客控 洗衣房 机器人服务 自营亲子房 无烟楼层 套房
全季酒店(上海虹桥枢纽临空园区店),"2,294条点评",501,上海,虹桥,广顺路8号,距市中心直线11.6公里,31.217846088475174,121.35266030807543,4.8,棒,4.8,4.8,4.8,4.8,免费停车 洗衣房 健身室 机器人服务 无烟楼层 套房 干衣机 免费拼车接机 会议厅 自助早餐
basePLUS佰舍服务式公寓(上海世博会博物馆滨江店),830条点评,550,上海,打浦桥,中山南一路428号,距市中心直线3.6公里,31.199496655638868,121.48506414089222,4.6,好,4.5,4.6,4.6,4.5,机器人服务 健身室 江河景房 干衣机 厨房 家庭房 健身课程 管家服务
上海万豪虹桥大酒店,903条点评,817,上海,虹桥,虹桥路2270号,距市中心直线10.3公里,31.19152964242046,121.37557703293831,4.5,不错,4.6,4.6,4.5,4.5,桑拿 行政酒廊 花园景 会议厅 室内恒温泳池 健身室 自助早餐 套房 咖啡厅 管家服务
隽升公寓,222条点评,187,上海,浦东外高桥,富特北路111号,距市中心直线17.2公里,31.345059342406397,121.59472805743502,4.7,很好,4.7,4.7,4.7,4.7,健身室 洗衣房 干衣机 管家服务 充电桩 会议厅 无烟楼层 游戏室 免费停车 茶室
上海金沙智选假日酒店,"3,091条点评",412,上海,长风公园,金沙江路2281号,距市中心直线10.2公里,31.23765906094834,121.36687361208494,4.8,棒,4.8,4.8,4.8,4.7,免费停车 充电桩 健身室 会议厅 干衣机 自助早餐 洗衣房 家庭房 无烟楼层 机器人服务
上海莘庄亚朵酒店,"1,983条点评",428,上海,莘庄,莘松路1007号,距市中心直线18.3公里,31.0993227784785,121.358630667308,4.9,超棒,4.9,4.9,4.9,4.8,免费停车 洗衣房 会议厅 花园景 健身室 干衣机 自助早餐 咖啡厅 家庭房 套房
上海虹桥兖矿郁锦香酒店,220条点评,400,上海,虹桥周边,明珠路303号,距市中心直线20.6公里,31.168819524718216,121.26967269102646,4.7,很好,4.7,4.8,4.7,4.7,健身室 机器人服务 智能客控 免费停车 干衣机 咖啡厅 无烟楼层 自助早餐 会议厅 充电桩
全季酒店(上海杨浦体育馆店),"1,019条点评",541,上海,北外滩,周家嘴路3815号,距市中心直线8.7公里,31.28034816148341,121.54466082984219,4.9,超棒,4.9,4.9,4.9,4.9,免费停车 洗衣房 机器人服务 健身室 无烟楼层 干衣机 自助早餐 花园
上海虹桥福朋喜来登酒店,"1,283条点评",397,上海,虹桥机场/国家会展中心,汇龙路227号B幢,距市中心直线19.6公里,31.1974753218927,121.271261272656,4.6,好,4.6,4.6,4.5,4.5,江河景房 酒吧 免费停车 自助早餐 咖啡厅 无烟楼层 健身室 花园景 套房 拍照出片
唯庭轻居酒店(松江大学城店),879条点评,280,上海,佘山/松江大学城,谷阳北路1425弄143号,距市中心直线31.8公里,31.03319318616724,121.23274098126164,4.6,好,4.6,4.6,4.6,4.5,机器人服务 智能客控 洗衣房 套房 干衣机 无烟楼层 家庭房 自助早餐
上海国际旅游度假区野生动物园亚朵X酒店,"1,770条点评",509,上海,南汇/野生动物园,惠南镇沪南公路9408号,距市中心直线31.7公里,31.036808415444362,121.7180974281392,4.7,很好,4.7,4.7,4.7,4.7,穿梭机场班车 智能客控 管家服务 机器人服务 亲子主题房 洗衣房 家庭房 套房 无烟楼层 干衣机
星酒店(上海虹桥国展中心店),551条点评,242,上海,虹桥机场/国家会展中心,曹安公路2300弄76号,距市中心直线12.9公里,31.261171563020397,121.34256708075674,4.3,,4.3,4.4,4.3,4.3,免费停车 无烟楼层
上海康桥万豪酒店,"2,265条点评",826,上海,迪士尼,康新公路4499号,距市中心直线18.6公里,31.11918699348,121.61896640906,4.6,好,4.6,4.6,4.5,4.5,免费停车 行政酒廊 儿童乐园 意大利餐厅 拍照出片 亲子酒店 自助早餐 泳池 套房 桑拿
美豪丽致酒店(上海虹桥枢纽国展店),"1,124条点评",323,上海,虹桥周边,新府中路1399弄203号,距市中心直线23公里,31.2281351159707,121.232079403743,4.8,棒,4.8,4.8,4.8,4.8,健身室 免费停车 管家服务 洗衣房 自助早餐 干衣机 亲子主题房 无烟楼层 套房 儿童托管
上海浦东机场亚朵酒店,"1,213条点评",573,上海,浦东机场核心区,祝桥镇施新路551弄-8号,距市中心直线28公里,31.146662745083415,121.7508507585053,4.7,很好,4.7,4.7,4.7,4.6,免费接送机 免费停车 智能客控 儿童乐园 机器人服务 花园 洗衣房 家庭房 无烟楼层 自助早餐
上海五角场INNO创智亚朵X酒店,924条点评,478,上海,江湾/五角场,国霞路289号,距市中心直线9.9公里,31.314701120280397,121.50556878694704,4.9,超棒,4.9,4.9,4.9,4.8,会议厅 咖啡厅 下午茶 套房 健身室 无烟楼层 洗衣房 自助早餐 干衣机 花园
上海兴荣酒店,70条点评,286,上海,浦东金桥,浦东大道2288号 (5-7),距市中心直线8.1公里,31.25347970675736,121.554784026321,4.3,,4.3,4.4,4.3,4.2,洗衣房 无烟楼层 新开业 干衣机 管家服务 充电桩 免费停车 自助早餐 家庭房
汉庭酒店(上海大宁国际广粤路店),239条点评,369,上海,大宁国际,广粤路281号,距市中心直线6.4公里,31.28697819146042,121.46483722376401,4.7,很好,4.7,4.8,4.7,4.7,免费停车 套房 洗衣房 机器人服务 无烟楼层 干衣机 自助早餐
上海中山公园云睿酒店,"3,391条点评",488,上海,中山公园,定西路1018号,距市中心直线5.2公里,31.211342676878083,121.42365561042607,4.6,好,4.6,4.6,4.6,4.5,洗衣房 会议厅 无烟楼层 套房 自助早餐
上海虹桥枢纽国展中心亚朵酒店,"2,485条点评",458,上海,虹桥机场/国家会展中心,申长北路126弄1号,距市中心直线15.5公里,31.218933158974,121.31099289711,4.8,棒,4.8,4.8,4.8,4.8,江河景房 机器人服务 免费送机 健身室 洗衣房 免费停车 会议厅 干衣机 自助早餐 无烟楼层
上海虹桥机场空港路亚朵X酒店,690条点评,439,上海,虹桥机场/国家会展中心,沪青平公路220号,距市中心直线13公里,31.181268536728243,121.3500369954549,4.7,很好,4.7,4.7,4.7,4.7,免费停车 机器人服务 会议厅 洗衣房 家庭房 健身室 套房 无烟楼层 自助早餐
和颐酒店(上海虹桥火车站国家会展中心店),"1,578条点评",403,上海,七宝,沪星路318号,距市中心直线14.8公里,31.164986876528094,121.33780434683527,4.6,好,4.6,4.6,4.6,4.5,机器人服务 干衣机 套房 洗衣房 商务中心 家庭房 无烟楼层 自助早餐
花吾语民宿,22条点评,952,上海,周康地区,康桥路1029弄1号楼817室,距市中心直线12.6公里,31.148614133734338,121.564711499869,4.6,好,4.6,4.7,4.6,4.6,投影仪 情侣房 干衣机 管家服务 充电桩 厨房 花园景
丽呈睿轩上海国际旅游度假区川沙酒店,"2,511条点评",425,上海,迪士尼,川沙镇妙境路1136弄58号,距市中心直线21.6公里,31.180174899457445,121.69272512478882,4.6,好,4.6,4.6,4.7,4.6,亲子主题房 免费机场班车 免费停车 自助早餐 干衣机 KTV 投影仪 家庭房 棋牌室 机器人服务
万和至臻酒店(上海日月光打浦桥地铁站店),"5,079条点评",454,上海,打浦桥,徐家汇路679-1号,距市中心直线2.9公里,31.205039310418528,121.46893116385617,4.6,好,4.6,4.6,4.7,4.6,商务中心 干衣机 投影仪 无烟楼层 拍照出片
上海陆家嘴民生路地铁站亚朵酒店,"1,836条点评",592,上海,陆家嘴,商城路2050号,距市中心直线6.4公里,31.238747654137597,121.54037100889829,4.8,棒,4.8,4.8,4.8,4.8,免费停车 机器人服务 会议厅 儿童餐 干衣机 洗衣房 健身室 下午茶 自助早餐 无烟楼层
锦江都城酒店(上海徐家汇南华亭宾馆),"1,974条点评",460,上海,徐家汇,中山西路2525号,距市中心直线6.6公里,31.18108651426304,121.43465565999429,4.7,很好,4.6,4.7,4.7,4.6,动人夜景 会议厅 中式风格 无烟楼层 免费停车 套房 自助早餐
上海闵行宝龙艾美酒店,"1,282条点评",816,上海,七宝,漕宝路3199号,距市中心直线13.8公里,31.157019628062486,121.35649772099883,4.7,很好,4.7,4.7,4.7,4.7,泳池 行政酒廊 健身室 酒吧 免费停车 套房 儿童乐园 自助早餐 管家服务 SPA
如家商旅酒店(上海大华新村路地铁站店),888条点评,374,上海,大宁国际,西乡路268号,距市中心直线6.1公里,31.268913030018492,121.42766101242418,4.7,很好,4.7,4.7,4.7,4.7,机器人服务 商务中心 无烟楼层 洗衣房 干衣机 自助早餐
上海新时空嘉廷酒店,"2,741条点评",383,上海,中山公园,汇川路99号2楼,距市中心直线5.6公里,31.217197295551518,121.41685983576829,4.2,,4.3,4.2,4.3,4.1,商务中心 无烟楼层 咖啡厅
科伦酒店(上海交通大学店),"3,351条点评",497,上海,徐家汇,番禺路222弄48号,距市中心直线5.2公里,31.20677408248615,121.42673674062024,4.7,很好,4.6,4.7,4.7,4.6,拍照出片 家庭房 无烟楼层 洗衣房 干衣机 自助早餐
汉庭酒店(上海环球港店),602条点评,379,上海,长风公园,武宁路492弄30号,距市中心直线5.4公里,31.243438640348113,121.41862914609662,4.8,棒,4.8,4.8,4.8,4.7,免费停车 机器人服务 咖啡厅 干衣机 洗衣房 自助早餐
维也纳国际酒店(上海虹桥枢纽嘉定马陆地铁站店),469条点评,301,上海,嘉定新城,马陆镇宝安公路3778号,距市中心直线22.5公里,31.325724628094324,121.26476845982593,4.1,,4.2,4.2,4.1,4.1,免费停车 套房 机器人服务 棋牌房 情侣房 管家服务 无烟楼层 会议厅 自助早餐 家庭房
上海兰墅智慧酒店(金山百联店),"4,265条点评",648,上海,金山城市沙滩,卫清西路45号,距市中心直线56.9公里,30.730571319520493,121.35131693977443,4.9,超棒,4.8,4.9,4.9,4.8,观影会员 机器人服务 影音房 棋牌房 投影仪 洗衣房 套房 干衣机 会议厅 免费停车
美豪丽致酒店(上海徐家汇衡山路店),"6,375条点评",659,上海,徐家汇,建国西路691号,距市中心直线4.4公里,31.2000116309643,121.44435890087985,4.7,很好,4.7,4.7,4.7,4.6,管家服务 亲子主题房 健身室 干衣机 无烟楼层 洗衣房 咖啡厅 套房 中式风格 家庭房
上海陆家嘴八佰伴亚朵酒店,"2,129条点评",728,上海,陆家嘴,商城路518号内外联大厦2楼,距市中心直线4.1公里,31.230009104009,121.51701201361,4.7,很好,4.7,4.7,4.7,4.6,儿童餐 商务中心 无烟楼层 自助早餐 干衣机 洗衣房 家庭房
上海宓亚酒店(徐家汇交大店),940条点评,491,上海,徐家汇,番禺路955号,距市中心直线5.8公里,31.19500404660511,121.42848457310032,4.7,很好,4.7,4.7,4.6,4.6,设计师酒店 新开业 健身室 机器人服务 工业风 蓝牙音箱 咖啡厅 无烟楼层 花园 套房
上海大华虹桥假日酒店,"5,707条点评",493,上海,七宝,星站路169号,距市中心直线14.6公里,31.162045087516173,121.3427552908644,4.8,棒,4.7,4.8,4.8,4.7,泳池 机器人服务 免费停车 行政酒廊 商务中心 无烟楼层 儿童乐园 下午茶 咖啡厅 套房
Meego米果智选酒店(西康路店),747条点评,351,上海,长寿路,西康路828号2楼,距市中心直线2.9公里,31.237688079164837,121.44407299211709,4.6,好,4.6,4.6,4.7,4.6,洗衣房 智能客控 家庭房 无烟楼层 干衣机 榻榻米房
上海五角场Pagoda君亭设计酒店,"1,979条点评",595,上海,江湾/五角场,政学路77号,距市中心直线9.1公里,31.306250052417,121.50939238908,4.6,好,4.6,4.6,4.6,4.6,设计师酒店 拍照出片 亲子主题房 恒温泳池 商务中心 家庭房 健身室 免费停车 洗衣房 无烟楼层
上海美亚璟庭酒店(白银路地铁站店),605条点评,358,上海,嘉定新城,洪德路880号,距市中心直线25.4公里,31.352866008963815,121.24886569331217,4.7,很好,4.7,4.7,4.7,4.6,免费停车 洗衣房 管家服务 咖啡厅 自助早餐 套房 无烟楼层 干衣机 花园 下午茶
锦江之星(上海浦东机场镇店),"2,080条点评",320,上海,浦东机场核心区,川南奉公路971弄1号1幢,距市中心直线26.3公里,31.18252973174404,121.7442723032192,4.5,不错,4.5,4.6,4.5,4.5,免费接送机 无烟楼层 花园景 免费停车 自助早餐
桔子水晶上海漕河泾宜山路酒店,"1,866条点评",402,上海,光大会展中心/漕河泾地区,宜山路829号,距市中心直线9.1公里,31.172240636926567,121.40669914886038,4.7,很好,4.7,4.7,4.7,4.7,免费停车 机器人服务 健身室 洗衣房 干衣机 会议厅 智能客控 免费儿童早餐 无烟楼层 套房
上海安兰云酒店,"1,930条点评",411,上海,虹桥周边,联友路58弄6号,距市中心直线18.7公里,31.2110804758671,121.27887529487,4.7,很好,4.8,4.8,4.8,4.7,免费停车 机器人服务 咖啡厅 自助早餐 健身室 套房 会议厅 洗衣房 拍照出片 茶室
柏里寓BAILIV(上海虹桥枢纽崧泽大道店),110条点评,282,上海,青浦朱家角/东方绿舟,香花桥街道崧泽大道6066号柏里寓27号楼,距市中心直线28.3公里,31.175369681627412,121.18343976427367,4.3,,4.4,4.3,4.2,4.3,免费停车 洗衣房 露营 健身室 免费携带宠物 会议厅 智能客控 咖啡厅 套房 茶室
上海大华新村路地铁站亚轻X酒店,"1,210条点评",371,上海,大宁国际,灵石路1559号,距市中心直线6.4公里,31.267639509557174,121.4228138159037,4.6,好,4.6,4.6,4.6,4.6,免费停车 家庭房 花园 机器人服务 健身室 洗衣房 干衣机 自助早餐 套房 无烟楼层
宜必思尚品酒店(上海虹桥古北店),"1,158条点评",375,上海,虹桥,虹许路486号,距市中心直线8.6公里,31.1894166530378,121.396556025748,4.8,棒,4.8,4.8,4.8,4.8,免费停车 洗衣房 机器人服务 干衣机 会议厅 自助早餐 花园
全季酒店(上海顾村公园地铁站店),752条点评,384,上海,顾村公园,陆翔路111弄11号4楼,距市中心直线16.1公里,31.3454827864964,121.371394382896,4.7,很好,4.7,4.7,4.7,4.7,洗衣房 无烟楼层 套房 干衣机 自助早餐
baseLITE佰舍服务式公寓(上海徐家汇龙华西路店),343条点评,433,上海,徐家汇,龙华西路315弄58号,距市中心直线6.9公里,31.17437759512408,121.44298025051602,4.6,好,4.6,4.7,4.6,4.6,健身室 无烟楼层 游戏室 桌球室 厨房
上海新国际博览中心舜地三和园酒店,526条点评,391,上海,新国际博览中心,成山路2599弄,距市中心直线9.1公里,31.180216960829096,121.54883758609367,4.7,很好,4.7,4.7,4.7,4.7,免费停车 健身室 咖啡厅 会议厅 亲子主题房 酒吧 套房 家庭房 洗衣房 花园
上海徐汇华泾亚朵酒店,581条点评,480,上海,莘庄,龙吟路69号,距市中心直线12.7公里,31.117977159200844,121.453450722873,4.9,超棒,4.8,4.9,4.9,4.9,免费停车 洗衣房 健身室 新开业 套房 自助早餐 无烟楼层 机器人服务 影音房
上海虹桥韩国街亚朵酒店,"2,764条点评",510,上海,光大会展中心/漕河泾地区,银亭路66号5F,距市中心直线11.4公里,31.171283167759384,121.3754583850159,4.8,棒,4.8,4.8,4.8,4.8,免费停车 洗衣房 商务中心 干衣机 音乐喷泉 管家服务 无烟楼层 儿童餐 自助早餐 拍照出片
上海浦东新国际博览中心同派酒店,"1,643条点评",569,上海,新国际博览中心,杨高中路2795号,距市中心直线7.9公里,31.2293077783269,121.556482670108,4.7,很好,4.7,4.7,4.7,4.6,充电桩 机器人服务 拍照出片 自助早餐 工业风 健身室 会议厅 下午茶 洗衣房 棋牌室
上海世博中心亚朵酒店,"3,002条点评",721,上海,新国际博览中心,耀华路261号,距市中心直线6.2公里,31.1762340990929,121.488441367224,4.8,棒,4.8,4.8,4.8,4.8,花园 洗衣房 免费停车 干衣机 机器人服务 咖啡厅 家庭房 中式风格 儿童餐 无烟楼层
定士居水晶酒店(上海虹桥火车站国家会展中心店),322条点评,579,上海,虹桥机场/国家会展中心,徐民路308弄108号,距市中心直线18.7公里,31.1816485487723,121.285682985928,4.7,很好,4.7,4.8,4.7,4.7,智能客控 套房 健身室 干衣机 洗衣房 无烟楼层 管家服务 花园景 机器人服务 中式风格
上海信业·悦你酒店,"3,770条点评",424,上海,嘉定新城,环城路762弄3号,距市中心直线28.2公里,31.3951998023683,121.248764085873,4.8,棒,4.8,4.8,4.7,4.7,免费停车 湖景房 充电桩 机器人服务 动人夜景 亲子主题房 健身室 儿童乐园 干衣机 洗衣房
上海陆家嘴东方明珠亚朵S酒店,"2,009条点评",679,上海,陆家嘴,桃林路189号,距市中心直线6公里,31.240494350130295,121.535447864366,4.8,棒,4.8,4.8,4.8,4.8,干衣机 健身室 自助早餐 套房 无烟楼层 免费停车 洗衣房 瑜伽课程 管家服务 花园景
上海休语小筑酒店公寓,5条点评,363,上海,新国际博览中心,龙阳路1245号,距市中心直线6.7公里,31.198349931328675,121.53352067080698,4.9,超棒,4.9,4.9,4.9,4.9,套房 厨房
上海夏亚酒店,"1,610条点评",592,上海,虹桥机场/国家会展中心,高泾路1118号,距市中心直线18.6公里,31.17093424642093,121.29143021452563,4.8,棒,4.8,4.8,4.7,4.7,健身室 免费停车 会议厅 花园景 行政酒廊 桑拿 室内泳池 中式餐厅 自助早餐 套房
上海中建瑞贝庭臻选公寓酒店,"1,825条点评",358,上海,大宁国际,场中路2018号,距市中心直线8.5公里,31.30423858368155,121.45179684334408,4.7,很好,4.7,4.7,4.7,4.7,免费停车 拍照出片 机器人服务 充电桩 家庭房 干衣机 会议厅 自助早餐 套房 无烟楼层
上海陆家嘴美居酒店,555条点评,665,上海,陆家嘴,浦东大道1535号一层,距市中心直线6.3公里,31.24370377108059,121.53844048797879,4.8,棒,4.8,4.8,4.8,4.8,机器人服务 干衣机 智能客控 健身室 免费停车 洗衣房 套房 无烟楼层 花园 自助早餐
零点依九思国际酒店(上海交大店),337条点评,365,上海,交大/闵行开发区,沪闵路64号,距市中心直线26公里,31.00036827782736,121.42580385154379,4.4,,4.4,4.4,4.4,4.4,健身室 管家服务 洗衣房 干衣机 免费停车 会议厅 江河景房 家庭房 自助早餐
大宿度假公寓(长兴岛郊野公园店),5条点评,975,上海,崇明岛/长兴岛/横沙岛,渔乐路88弄长兴金茂逸墅东区41栋,距市中心直线28.2公里,31.38976769979878,121.70415114359487,4.5,不错,4.6,4.7,4.2,4.6,免费携带宠物 新开业 套房 家庭房 花园景 厨房 管家服务
宜必思酒店(上海新国际博览中心联洋店),"1,777条点评",406,上海,新国际博览中心,芳甸路200号,距市中心直线7.9公里,31.226710200008895,121.55709388463305,4.6,好,4.6,4.7,4.7,4.6,机器人服务 干衣机 商务中心 洗衣房 无烟楼层 自助早餐 咖啡厅
上海初心莫舍设计师民宿,"3,488条点评",791,上海,迪士尼,陈桥村1132号2室,距市中心直线22.7公里,31.1417542656995,121.687987660548,4.8,棒,4.8,4.8,4.8,4.7,免费机场班车 亲子主题房 庭院式建筑 室外泳池 星空房 拍照出片 中式风格 管家服务 ins风格 免费儿童早餐
上海陆家嘴金融中心轻居酒店,262条点评,530,上海,陆家嘴,蓝村路2号,距市中心直线6公里,31.211202106466143,121.53274261913057,4.8,棒,4.8,4.9,4.8,4.8,机器人服务 洗衣房 新开业 商务中心 影音房 健身室
F1臻品酒店(上海大宁国际延长路地铁站店),583条点评,367,上海,大宁国际,老沪太路195弄-1号,距市中心直线4.6公里,31.268168401158146,121.45439094624435,4.6,好,4.6,4.6,4.6,4.6,洗衣房 家庭房 无烟楼层 自助早餐
汉庭酒店(上海虹桥枢纽七宝中心店),514条点评,419,上海,七宝,沪松公路577号,距市中心直线15.4公里,31.15081754559831,121.34187132638151,4.8,棒,4.8,4.8,4.8,4.8,机器人服务 咖啡厅 无烟楼层 洗衣房
YOUNG服务式公寓酒店,65条点评,476,上海,前滩,东书房路629弄25号4层,距市中心直线9.6公里,31.16348784923451,121.53728787708708,4.6,好,4.5,4.7,4.8,4.5,管家服务 洗衣房 套房 充电桩 家庭房 厨房
上海银星皇冠假日酒店,"2,585条点评",700,上海,徐家汇,番禺路400号,距市中心直线5.2公里,31.202768688881225,121.42952349005853,4.6,好,4.6,4.6,4.6,4.4,咖啡厅 会议厅 无烟楼层 健身室 自助早餐 家庭房 洗衣房 套房 拍照出片 泳池
景莱酒店∙臻选(上海真如地铁站店),726条点评,353,上海,长风公园,兰溪路258号,距市中心直线7公里,31.246802966430295,121.40234921386083,4.7,很好,4.7,4.7,4.7,4.7,健身室 干衣机 机器人服务 花园景 管家服务 智能客控 无烟楼层 洗衣房 免费儿童早餐 会议厅
上海奉贤开元名庭酒店,531条点评,368,上海,奉贤开发区,南奉公路6001号12幢,距市中心直线34.8公里,30.919812633044227,121.51599062267584,4.7,很好,4.7,4.7,4.7,4.7,棋牌室 机器人服务 中式餐厅 自营亲子房 自助早餐 健身室 免费停车 套房 家庭房 无烟楼层
汉庭优佳酒店(上海殷高西路地铁站店),418条点评,397,上海,吴淞口国际邮轮港,殷高西路506号,距市中心直线10公里,31.320673081935457,121.47524083251177,4.8,棒,4.8,4.8,4.8,4.8,机器人服务 洗衣房 套房 免费停车 自助早餐
建国铂萃酒店(上海虹桥枢纽国家会展中心店),961条点评,457,上海,虹桥机场/国家会展中心,润虹路373号,距市中心直线15.2公里,31.20424421443989,121.31680761189023,4.8,棒,4.8,4.8,4.8,4.8,智能客控 免费停车 洗衣房 机器人服务 酒吧 咖啡厅 无烟楼层 儿童餐 会议厅 棋牌室
上海五角场国航路CitiGO欢阁酒店,659条点评,438,上海,江湾/五角场,国航路89号,距市中心直线9.7公里,31.3134827539302,121.505509874985,4.8,棒,4.8,4.8,4.8,4.8,健身室 洗衣房 智能客控 家庭房 干衣机 免费停车 咖啡厅 花园 自助早餐 机器人服务
上海虹桥国展临空园区亚朵酒店,"1,254条点评",466,上海,虹桥,通协路388号C幢楼,距市中心直线11.7公里,31.228048221754094,121.35129625460488,4.8,棒,4.8,4.9,4.9,4.9,管家服务 免费停车 洗衣房 商务中心 健身室 干衣机 自助早餐 咖啡厅 无烟楼层 智能客控
布栖尔遇尚居酒店(上海嘉定新城远香湖店),879条点评,277,上海,嘉定新城,白银路355弄58号,距市中心直线24.4公里,31.351305736622084,121.26018361849431,4.6,好,4.6,4.6,4.5,4.6,茶室 i7 10700 影音房 电竞鼠标 机械键盘 多人开黑 无烟楼层 洗衣房 机器人服务 干衣机
